{
  "type": "FeatureCollection",
  "features": [
    {
      "type": "Feature",
      "id": "AL_1",
      "properties": {
        "st": "AL",
        "state": "Alabama",
        "city": "Birmingham"
      },
      "geometry": {
        "type": "Point",
        "coordinates": [
          -86.8104,
          33.5186
        ]
      }
    },
    {
      "type": "Feature",
      "id": "AL_2",
      "properties": {
        "st": "AL",
        "state": "Alabama",
        "city": "Huntsville"
      },
      "geometry": {
        "type": "Point",
        "coordinates": [
          -86.5861,
          34.7304
        ]
      }
    },
    {
      "type": "Feature",
      "id": "AL_3",
      "properties": {
        "st": "AL",
        "state": "Alabama",
        "city": "Mobile"
      },
      "geometry": {
        "type": "Point",
        "coordinates": [
          -88.0399,
          30.6954
        ]
      }
    },
    {
      "type": "Feature",
      "id": "AR_1",
      "properties": {
        "st": "AR",
        "state": "Arkansas",
        "city": "Little Rock"
      },
      "geometry": {
        "type": "Point",
        "coordinates": [
          -92.2896,
          34.7465
        ]
      }
    },
    {
      "type": "Feature",
      "id": "AR_2",
      "properties": {
        "st": "AR",
        "state": "Arkansas",
        "city": "Fayetteville"
      },
      "geometry": {
        "type": "Point",
        "coordinates": [
          -94.1719,
          36.0822
        ]
      }
    },
    {
      "type": "Feature",
      "id": "AR_3",
      "properties": {
        "st": "AR",
        "state": "Arkansas",
        "city": "Fort Smith"
      },
      "geometry": {
        "type": "Point",
        "coordinates": [
          -94.3985,
          35.3859
        ]
      }
    },
    {
      "type": "Feature",
      "id": "AZ_1",
      "properties": {
        "st": "AZ",
        "state": "Arizona",
        "city": "Phoenix"
      },
      "geometry": {
        "type": "Point",
        "coordinates": [
          -112.074,
          33.4484
        ]
      }
    },
    {
      "type": "Feature",
      "id": "AZ_2",
      "properties": {
        "st": "AZ",
        "state": "Arizona",
        "city": "Tucson"
      },
      "geometry": {
        "type": "Point",
        "coordinates": [
          -110.9747,
          32.2226
        ]
      }
    },
    {
      "type": "Feature",
      "id": "AZ_3",
      "properties": {
        "st": "AZ",
        "state": "Arizona",
        "city": "Yuma"
      },
      "geometry": {
        "type": "Point",
        "coordinates": [
          -114.6277,
          32.6927
        ]
      }
    },
    {
      "type": "Feature",
      "id": "CA_1",
      "properties": {
        "st": "CA",
        "state": "California",
        "city": "Los Angeles"
      },
      "geometry": {
        "type": "Point",
        "coordinates": [
          -118.2437,
          34.0522
        ]
      }
    },
    {
      "type": "Feature",
      "id": "CA_2",
      "properties": {
        "st": "CA",
        "state": "California",
        "city": "San Francisco"
      },
      "geometry": {
        "type": "Point",
        "coordinates": [
          -122.4194,
          37.7749
        ]
      }
    },
    {
      "type": "Feature",
      "id": "CA_3",
      "properties": {
        "st": "CA",
        "state": "California",
        "city": "San Diego"
      },
      "geometry": {
        "type": "Point",
        "coordinates": [
          -117.1611,
          32.7157
        ]
      }
    },
    {
      "type": "Feature",
      "id": "CO_1",
      "properties": {
        "st": "CO",
        "state": "Colorado",
        "city": "Denver"
      },
      "geometry": {
        "type": "Point",
        "coordinates": [
          -104.9903,
          39.7392
        ]
      }
    },
    {
      "type": "Feature",
      "id": "CO_2",
      "properties": {
        "st": "CO",
        "state": "Colorado",
        "city": "Colorado Springs"
      },
      "geometry": {
        "type": "Point",
        "coordinates": [
          -104.8214,
          38.8339
        ]
      }
    },
    {
      "type": "Feature",
      "id": "CO_3",
      "properties": {
        "st": "CO",
        "state": "Colorado",
        "city": "Fort Collins"
      },
      "geometry": {
        "type": "Point",
        "coordinates": [
          -105.0844,
          40.5853
        ]
      }
    },
    {
      "type": "Feature",
      "id": "CT_1",
      "properties": {
        "st": "CT",
        "state": "Connecticut",
        "city": "Hartford"
      },
      "geometry": {
        "type": "Point",
        "coordinates": [
          -72.6734,
          41.7658
        ]
      }
    },
    {
      "type": "Feature",
      "id": "CT_2",
      "properties": {
        "st": "CT",
        "state": "Connecticut",
        "city": "Bridgeport"
      },
      "geometry": {
        "type": "Point",
        "coordinates": [
          -73.1894,
          41.1792
        ]
      }
    },
    {
      "type": "Feature",
      "id": "CT_3",
      "properties": {
        "st": "CT",
        "state": "Connecticut",
        "city": "New Haven"
      },
      "geometry": {
        "type": "Point",
        "coordinates": [
          -72.9279,
          41.3083
        ]
      }
    },
    {
      "type": "Feature",
      "id": "DC_1",
      "properties": {
        "st": "DC",
        "state": "District of Columbia",
        "city": "Washington"
      },
      "geometry": {
        "type": "Point",
        "coordinates": [
          -77.0369,
          38.9072
        ]
      }
    },
    {
      "type": "Feature",
      "id": "DE_1",
      "properties": {
        "st": "DE",
        "state": "Delaware",
        "city": "Wilmington"
      },
      "geometry": {
        "type": "Point",
        "coordinates": [
          -75.5398,
          39.7391
        ]
      }
    },
    {
      "type": "Feature",
      "id": "DE_2",
      "properties": {
        "st": "DE",
        "state": "Delaware",
        "city": "Dover"
      },
      "geometry": {
        "type": "Point",
        "coordinates": [
          -75.5244,
          39.1582
        ]
      }
    },
    {
      "type": "Feature",
      "id": "FL_1",
      "properties": {
        "st": "FL",
        "state": "Florida",
        "city": "Miami"
      },
      "geometry": {
        "type": "Point",
        "coordinates": [
          -80.1918,
          25.7617
        ]
      }
    },
    {
      "type": "Feature",
      "id": "FL_2",
      "properties": {
        "st": "FL",
        "state": "Florida",
        "city": "Tampa"
      },
      "geometry": {
        "type": "Point",
        "coordinates": [
          -82.4572,
          27.9506
        ]
      }
    },
    {
      "type": "Feature",
      "id": "FL_3",
      "properties": {
        "st": "FL",
        "state": "Florida",
        "city": "Orlando"
      },
      "geometry": {
        "type": "Point",
        "coordinates": [
          -81.3792,
          28.5383
        ]
      }
    },
    {
      "type": "Feature",
      "id": "GA_1",
      "properties": {
        "st": "GA",
        "state": "Georgia",
        "city": "Atlanta"
      },
      "geometry": {
        "type": "Point",
        "coordinates": [
          -84.388,
          33.749
        ]
      }
    },
    {
      "type": "Feature",
      "id": "GA_2",
      "properties": {
        "st": "GA",
        "state": "Georgia",
        "city": "Savannah"
      },
      "geometry": {
        "type": "Point",
        "coordinates": [
          -81.0912,
          32.0809
        ]
      }
    },
    {
      "type": "Feature",
      "id": "GA_3",
      "properties": {
        "st": "GA",
        "state": "Georgia",
        "city": "Augusta"
      },
      "geometry": {
        "type": "Point",
        "coordinates": [
          -82.0105,
          33.4735
        ]
      }
    },
    {
      "type": "Feature",
      "id": "IA_1",
      "properties": {
        "st": "IA",
        "state": "Iowa",
        "city": "Des Moines"
      },
      "geometry": {
        "type": "Point",
        "coordinates": [
          -93.625,
          41.5868
        ]
      }
    },
    {
      "type": "Feature",
      "id": "IA_2",
      "properties": {
        "st": "IA",
        "state": "Iowa",
        "city": "Davenport"
      },
      "geometry": {
        "type": "Point",
        "coordinates": [
          -90.5776,
          41.5236
        ]
      }
    },
    {
      "type": "Feature",
      "id": "IA_3",
      "properties": {
        "st": "IA",
        "state": "Iowa",
        "city": "Cedar Rapids"
      },
      "geometry": {
        "type": "Point",
        "coordinates": [
          -91.6656,
          41.9779
        ]
      }
    },
    {
      "type": "Feature",
      "id": "ID_1",
      "properties": {
        "st": "ID",
        "state": "Idaho",
        "city": "Boise"
      },
      "geometry": {
        "type": "Point",
        "coordinates": [
          -116.2023,
          43.615
        ]
      }
    },
    {
      "type": "Feature",
      "id": "ID_2",
      "properties": {
        "st": "ID",
        "state": "Idaho",
        "city": "Coeur d'Alene"
      },
      "geometry": {
        "type": "Point",
        "coordinates": [
          -116.7805,
          47.6777
        ]
      }
    },
    {
      "type": "Feature",
      "id": "ID_3",
      "properties": {
        "st": "ID",
        "state": "Idaho",
        "city": "Idaho Falls"
      },
      "geometry": {
        "type": "Point",
        "coordinates": [
          -112.0333,
          43.4917
        ]
      }
    },
    {
      "type": "Feature",
      "id": "IL_1",
      "properties": {
        "st": "IL",
        "state": "Illinois",
        "city": "Chicago"
      },
      "geometry": {
        "type": "Point",
        "coordinates": [
          -87.6298,
          41.8781
        ]
      }
    },
    {
      "type": "Feature",
      "id": "IL_2",
      "properties": {
        "st": "IL",
        "state": "Illinois",
        "city": "Peoria"
      },
      "geometry": {
        "type": "Point",
        "coordinates": [
          -89.589,
          40.6936
        ]
      }
    },
    {
      "type": "Feature",
      "id": "IL_3",
      "properties": {
        "st": "IL",
        "state": "Illinois",
        "city": "Rockford"
      },
      "geometry": {
        "type": "Point",
        "coordinates": [
          -89.0937,
          42.2711
        ]
      }
    },
    {
      "type": "Feature",
      "id": "IN_1",
      "properties": {
        "st": "IN",
        "state": "Indiana",
        "city": "Indianapolis"
      },
      "geometry": {
        "type": "Point",
        "coordinates": [
          -86.1581,
          39.7684
        ]
      }
    },
    {
      "type": "Feature",
      "id": "IN_2",
      "properties": {
        "st": "IN",
        "state": "Indiana",
        "city": "Fort Wayne"
      },
      "geometry": {
        "type": "Point",
        "coordinates": [
          -85.1394,
          41.0793
        ]
      }
    },
    {
      "type": "Feature",
      "id": "IN_3",
      "properties": {
        "st": "IN",
        "state": "Indiana",
        "city": "South Bend"
      },
      "geometry": {
        "type": "Point",
        "coordinates": [
          -86.252,
          41.6764
        ]
      }
    },
    {
      "type": "Feature",
      "id": "KS_1",
      "properties": {
        "st": "KS",
        "state": "Kansas",
        "city": "Wichita"
      },
      "geometry": {
        "type": "Point",
        "coordinates": [
          -97.3301,
          37.6872
        ]
      }
    },
    {
      "type": "Feature",
      "id": "KS_2",
      "properties": {
        "st": "KS",
        "state": "Kansas",
        "city": "Kansas City"
      },
      "geometry": {
        "type": "Point",
        "coordinates": [
          -94.6275,
          39.1142
        ]
      }
    },
    {
      "type": "Feature",
      "id": "KS_3",
      "properties": {
        "st": "KS",
        "state": "Kansas",
        "city": "Topeka"
      },
      "geometry": {
        "type": "Point",
        "coordinates": [
          -95.6752,
          39.0473
        ]
      }
    },
    {
      "type": "Feature",
      "id": "KY_1",
      "properties": {
        "st": "KY",
        "state": "Kentucky",
        "city": "Louisville"
      },
      "geometry": {
        "type": "Point",
        "coordinates": [
          -85.7585,
          38.2527
        ]
      }
    },
    {
      "type": "Feature",
      "id": "KY_2",
      "properties": {
        "st": "KY",
        "state": "Kentucky",
        "city": "Lexington"
      },
      "geometry": {
        "type": "Point",
        "coordinates": [
          -84.5037,
          38.0406
        ]
      }
    },
    {
      "type": "Feature",
      "id": "KY_3",
      "properties": {
        "st": "KY",
        "state": "Kentucky",
        "city": "Bowling Green"
      },
      "geometry": {
        "type": "Point",
        "coordinates": [
          -86.4808,
          36.9685
        ]
      }
    },
    {
      "type": "Feature",
      "id": "LA_1",
      "properties": {
        "st": "LA",
        "state": "Louisiana",
        "city": "New Orleans"
      },
      "geometry": {
        "type": "Point",
        "coordinates": [
          -90.0715,
          29.9511
        ]
      }
    },
    {
      "type": "Feature",
      "id": "LA_2",
      "properties": {
        "st": "LA",
        "state": "Louisiana",
        "city": "Baton Rouge"
      },
      "geometry": {
        "type": "Point",
        "coordinates": [
          -91.1871,
          30.4515
        ]
      }
    },
    {
      "type": "Feature",
      "id": "LA_3",
      "properties": {
        "st": "LA",
        "state": "Louisiana",
        "city": "Lafayette"
      },
      "geometry": {
        "type": "Point",
        "coordinates": [
          -92.0198,
          30.2241
        ]
      }
    },
    {
      "type": "Feature",
      "id": "MA_1",
      "properties": {
        "st": "MA",
        "state": "Massachusetts",
        "city": "Boston"
      },
      "geometry": {
        "type": "Point",
        "coordinates": [
          -71.0589,
          42.3601
        ]
      }
    },
    {
      "type": "Feature",
      "id": "MA_2",
      "properties": {
        "st": "MA",
        "state": "Massachusetts",
        "city": "Worcester"
      },
      "geometry": {
        "type": "Point",
        "coordinates": [
          -71.8023,
          42.2626
        ]
      }
    },
    {
      "type": "Feature",
      "id": "MA_3",
      "properties": {
        "st": "MA",
        "state": "Massachusetts",
        "city": "Springfield"
      },
      "geometry": {
        "type": "Point",
        "coordinates": [
          -72.5898,
          42.1015
        ]
      }
    },
    {
      "type": "Feature",
      "id": "MD_1",
      "properties": {
        "st": "MD",
        "state": "Maryland",
        "city": "Baltimore"
      },
      "geometry": {
        "type": "Point",
        "coordinates": [
          -76.6122,
          39.2904
        ]
      }
    },
    {
      "type": "Feature",
      "id": "MD_2",
      "properties": {
        "st": "MD",
        "state": "Maryland",
        "city": "Hagerstown"
      },
      "geometry": {
        "type": "Point",
        "coordinates": [
          -77.7199,
          39.6418
        ]
      }
    },
    {
      "type": "Feature",
      "id": "MD_3",
      "properties": {
        "st": "MD",
        "state": "Maryland",
        "city": "Salisbury"
      },
      "geometry": {
        "type": "Point",
        "coordinates": [
          -75.5994,
          38.3607
        ]
      }
    },
    {
      "type": "Feature",
      "id": "ME_1",
      "properties": {
        "st": "ME",
        "state": "Maine",
        "city": "Portland"
      },
      "geometry": {
        "type": "Point",
        "coordinates": [
          -70.2568,
          43.6591
        ]
      }
    },
    {
      "type": "Feature",
      "id": "ME_2",
      "properties": {
        "st": "ME",
        "state": "Maine",
        "city": "Bangor"
      },
      "geometry": {
        "type": "Point",
        "coordinates": [
          -68.7778,
          44.8012
        ]
      }
    },
    {
      "type": "Feature",
      "id": "ME_3",
      "properties": {
        "st": "ME",
        "state": "Maine",
        "city": "Augusta"
      },
      "geometry": {
        "type": "Point",
        "coordinates": [
          -69.7795,
          44.3106
        ]
      }
    },
    {
      "type": "Feature",
      "id": "MI_1",
      "properties": {
        "st": "MI",
        "state": "Michigan",
        "city": "Detroit"
      },
      "geometry": {
        "type": "Point",
        "coordinates": [
          -83.0458,
          42.3314
        ]
      }
    },
    {
      "type": "Feature",
      "id": "MI_2",
      "properties": {
        "st": "MI",
        "state": "Michigan",
        "city": "Grand Rapids"
      },
      "geometry": {
        "type": "Point",
        "coordinates": [
          -85.6681,
          42.9634
        ]
      }
    },
    {
      "type": "Feature",
      "id": "MI_3",
      "properties": {
        "st": "MI",
        "state": "Michigan",
        "city": "Lansing"
      },
      "geometry": {
        "type": "Point",
        "coordinates": [
          -84.5555,
          42.7325
        ]
      }
    },
    {
      "type": "Feature",
      "id": "MN_1",
      "properties": {
        "st": "MN",
        "state": "Minnesota",
        "city": "Minneapolis"
      },
      "geometry": {
        "type": "Point",
        "coordinates": [
          -93.265,
          44.9778
        ]
      }
    },
    {
      "type": "Feature",
      "id": "MN_2",
      "properties": {
        "st": "MN",
        "state": "Minnesota",
        "city": "Duluth"
      },
      "geometry": {
        "type": "Point",
        "coordinates": [
          -92.1005,
          46.7867
        ]
      }
    },
    {
      "type": "Feature",
      "id": "MN_3",
      "properties": {
        "st": "MN",
        "state": "Minnesota",
        "city": "Rochester"
      },
      "geometry": {
        "type": "Point",
        "coordinates": [
          -92.4802,
          44.0121
        ]
      }
    },
    {
      "type": "Feature",
      "id": "MO_1",
      "properties": {
        "st": "MO",
        "state": "Missouri",
        "city": "St. Louis"
      },
      "geometry": {
        "type": "Point",
        "coordinates": [
          -90.1994,
          38.627
        ]
      }
    },
    {
      "type": "Feature",
      "id": "MO_2",
      "properties": {
        "st": "MO",
        "state": "Missouri",
        "city": "Kansas City"
      },
      "geometry": {
        "type": "Point",
        "coordinates": [
          -94.5786,
          39.0997
        ]
      }
    },
    {
      "type": "Feature",
      "id": "MO_3",
      "properties": {
        "st": "MO",
        "state": "Missouri",
        "city": "Springfield"
      },
      "geometry": {
        "type": "Point",
        "coordinates": [
          -93.2923,
          37.2089
        ]
      }
    },
    {
      "type": "Feature",
      "id": "MS_1",
      "properties": {
        "st": "MS",
        "state": "Mississippi",
        "city": "Jackson"
      },
      "geometry": {
        "type": "Point",
        "coordinates": [
          -90.1848,
          32.2988
        ]
      }
    },
    {
      "type": "Feature",
      "id": "MS_2",
      "properties": {
        "st": "MS",
        "state": "Mississippi",
        "city": "Gulfport"
      },
      "geometry": {
        "type": "Point",
        "coordinates": [
          -89.0928,
          30.3674
        ]
      }
    },
    {
      "type": "Feature",
      "id": "MS_3",
      "properties": {
        "st": "MS",
        "state": "Mississippi",
        "city": "Hattiesburg"
      },
      "geometry": {
        "type": "Point",
        "coordinates": [
          -89.2903,
          31.3271
        ]
      }
    },
    {
      "type": "Feature",
      "id": "MT_1",
      "properties": {
        "st": "MT",
        "state": "Montana",
        "city": "Billings"
      },
      "geometry": {
        "type": "Point",
        "coordinates": [
          -108.5007,
          45.7833
        ]
      }
    },
    {
      "type": "Feature",
      "id": "MT_2",
      "properties": {
        "st": "MT",
        "state": "Montana",
        "city": "Bozeman"
      },
      "geometry": {
        "type": "Point",
        "coordinates": [
          -111.0429,
          45.677
        ]
      }
    },
    {
      "type": "Feature",
      "id": "MT_3",
      "properties": {
        "st": "MT",
        "state": "Montana",
        "city": "Missoula"
      },
      "geometry": {
        "type": "Point",
        "coordinates": [
          -113.994,
          46.8721
        ]
      }
    },
    {
      "type": "Feature",
      "id": "NC_1",
      "properties": {
        "st": "NC",
        "state": "North Carolina",
        "city": "Charlotte"
      },
      "geometry": {
        "type": "Point",
        "coordinates": [
          -80.8431,
          35.2271
        ]
      }
    },
    {
      "type": "Feature",
      "id": "NC_2",
      "properties": {
        "st": "NC",
        "state": "North Carolina",
        "city": "Raleigh"
      },
      "geometry": {
        "type": "Point",
        "coordinates": [
          -78.6382,
          35.7796
        ]
      }
    },
    {
      "type": "Feature",
      "id": "NC_3",
      "properties": {
        "st": "NC",
        "state": "North Carolina",
        "city": "Greensboro"
      },
      "geometry": {
        "type": "Point",
        "coordinates": [
          -79.792,
          36.0726
        ]
      }
    },
    {
      "type": "Feature",
      "id": "ND_1",
      "properties": {
        "st": "ND",
        "state": "North Dakota",
        "city": "Fargo"
      },
      "geometry": {
        "type": "Point",
        "coordinates": [
          -96.7898,
          46.8772
        ]
      }
    },
    {
      "type": "Feature",
      "id": "ND_2",
      "properties": {
        "st": "ND",
        "state": "North Dakota",
        "city": "Bismarck"
      },
      "geometry": {
        "type": "Point",
        "coordinates": [
          -100.7837,
          46.8083
        ]
      }
    },
    {
      "type": "Feature",
      "id": "ND_3",
      "properties": {
        "st": "ND",
        "state": "North Dakota",
        "city": "Grand Forks"
      },
      "geometry": {
        "type": "Point",
        "coordinates": [
          -97.0329,
          47.9253
        ]
      }
    },
    {
      "type": "Feature",
      "id": "NE_1",
      "properties": {
        "st": "NE",
        "state": "Nebraska",
        "city": "Omaha"
      },
      "geometry": {
        "type": "Point",
        "coordinates": [
          -95.9345,
          41.2565
        ]
      }
    },
    {
      "type": "Feature",
      "id": "NE_2",
      "properties": {
        "st": "NE",
        "state": "Nebraska",
        "city": "Lincoln"
      },
      "geometry": {
        "type": "Point",
        "coordinates": [
          -96.7026,
          40.8136
        ]
      }
    },
    {
      "type": "Feature",
      "id": "NE_3",
      "properties": {
        "st": "NE",
        "state": "Nebraska",
        "city": "Grand Island"
      },
      "geometry": {
        "type": "Point",
        "coordinates": [
          -98.342,
          40.9264
        ]
      }
    },
    {
      "type": "Feature",
      "id": "NH_1",
      "properties": {
        "st": "NH",
        "state": "New Hampshire",
        "city": "Manchester"
      },
      "geometry": {
        "type": "Point",
        "coordinates": [
          -71.4548,
          42.9956
        ]
      }
    },
    {
      "type": "Feature",
      "id": "NH_2",
      "properties": {
        "st": "NH",
        "state": "New Hampshire",
        "city": "Concord"
      },
      "geometry": {
        "type": "Point",
        "coordinates": [
          -71.5376,
          43.2081
        ]
      }
    },
    {
      "type": "Feature",
      "id": "NH_3",
      "properties": {
        "st": "NH",
        "state": "New Hampshire",
        "city": "Portsmouth"
      },
      "geometry": {
        "type": "Point",
        "coordinates": [
          -70.7626,
          43.0718
        ]
      }
    },
    {
      "type": "Feature",
      "id": "NJ_1",
      "properties": {
        "st": "NJ",
        "state": "New Jersey",
        "city": "Newark"
      },
      "geometry": {
        "type": "Point",
        "coordinates": [
          -74.1724,
          40.7357
        ]
      }
    },
    {
      "type": "Feature",
      "id": "NJ_2",
      "properties": {
        "st": "NJ",
        "state": "New Jersey",
        "city": "Camden"
      },
      "geometry": {
        "type": "Point",
        "coordinates": [
          -75.1196,
          39.9259
        ]
      }
    },
    {
      "type": "Feature",
      "id": "NJ_3",
      "properties": {
        "st": "NJ",
        "state": "New Jersey",
        "city": "Trenton"
      },
      "geometry": {
        "type": "Point",
        "coordinates": [
          -74.7429,
          40.2171
        ]
      }
    },
    {
      "type": "Feature",
      "id": "NM_1",
      "properties": {
        "st": "NM",
        "state": "New Mexico",
        "city": "Albuquerque"
      },
      "geometry": {
        "type": "Point",
        "coordinates": [
          -106.6504,
          35.0844
        ]
      }
    },
    {
      "type": "Feature",
      "id": "NM_2",
      "properties": {
        "st": "NM",
        "state": "New Mexico",
        "city": "Las Cruces"
      },
      "geometry": {
        "type": "Point",
        "coordinates": [
          -106.7637,
          32.3199
        ]
      }
    },
    {
      "type": "Feature",
      "id": "NM_3",
      "properties": {
        "st": "NM",
        "state": "New Mexico",
        "city": "Santa Fe"
      },
      "geometry": {
        "type": "Point",
        "coordinates": [
          -105.9378,
          35.687
        ]
      }
    },
    {
      "type": "Feature",
      "id": "NV_1",
      "properties": {
        "st": "NV",
        "state": "Nevada",
        "city": "Las Vegas"
      },
      "geometry": {
        "type": "Point",
        "coordinates": [
          -115.1398,
          36.1699
        ]
      }
    },
    {
      "type": "Feature",
      "id": "NV_2",
      "properties": {
        "st": "NV",
        "state": "Nevada",
        "city": "Reno"
      },
      "geometry": {
        "type": "Point",
        "coordinates": [
          -119.8138,
          39.5296
        ]
      }
    },
    {
      "type": "Feature",
      "id": "NV_3",
      "properties": {
        "st": "NV",
        "state": "Nevada",
        "city": "Elko"
      },
      "geometry": {
        "type": "Point",
        "coordinates": [
          -115.7631,
          40.8324
        ]
      }
    },
    {
      "type": "Feature",
      "id": "NY_1",
      "properties": {
        "st": "NY",
        "state": "New York",
        "city": "New York"
      },
      "geometry": {
        "type": "Point",
        "coordinates": [
          -74.006,
          40.7128
        ]
      }
    },
    {
      "type": "Feature",
      "id": "NY_2",
      "properties": {
        "st": "NY",
        "state": "New York",
        "city": "Buffalo"
      },
      "geometry": {
        "type": "Point",
        "coordinates": [
          -78.8784,
          42.8864
        ]
      }
    },
    {
      "type": "Feature",
      "id": "NY_3",
      "properties": {
        "st": "NY",
        "state": "New York",
        "city": "Rochester"
      },
      "geometry": {
        "type": "Point",
        "coordinates": [
          -77.6088,
          43.1566
        ]
      }
    },
    {
      "type": "Feature",
      "id": "OH_1",
      "properties": {
        "st": "OH",
        "state": "Ohio",
        "city": "Columbus"
      },
      "geometry": {
        "type": "Point",
        "coordinates": [
          -82.9988,
          39.9612
        ]
      }
    },
    {
      "type": "Feature",
      "id": "OH_2",
      "properties": {
        "st": "OH",
        "state": "Ohio",
        "city": "Cleveland"
      },
      "geometry": {
        "type": "Point",
        "coordinates": [
          -81.6944,
          41.4993
        ]
      }
    },
    {
      "type": "Feature",
      "id": "OH_3",
      "properties": {
        "st": "OH",
        "state": "Ohio",
        "city": "Cincinnati"
      },
      "geometry": {
        "type": "Point",
        "coordinates": [
          -84.512,
          39.1031
        ]
      }
    },
    {
      "type": "Feature",
      "id": "OK_1",
      "properties": {
        "st": "OK",
        "state": "Oklahoma",
        "city": "Oklahoma City"
      },
      "geometry": {
        "type": "Point",
        "coordinates": [
          -97.5164,
          35.4676
        ]
      }
    },
    {
      "type": "Feature",
      "id": "OK_2",
      "properties": {
        "st": "OK",
        "state": "Oklahoma",
        "city": "Tulsa"
      },
      "geometry": {
        "type": "Point",
        "coordinates": [
          -95.9928,
          36.154
        ]
      }
    },
    {
      "type": "Feature",
      "id": "OK_3",
      "properties": {
        "st": "OK",
        "state": "Oklahoma",
        "city": "Lawton"
      },
      "geometry": {
        "type": "Point",
        "coordinates": [
          -98.3959,
          34.6036
        ]
      }
    },
    {
      "type": "Feature",
      "id": "OR_1",
      "properties": {
        "st": "OR",
        "state": "Oregon",
        "city": "Portland"
      },
      "geometry": {
        "type": "Point",
        "coordinates": [
          -122.6784,
          45.5152
        ]
      }
    },
    {
      "type": "Feature",
      "id": "OR_2",
      "properties": {
        "st": "OR",
        "state": "Oregon",
        "city": "Eugene"
      },
      "geometry": {
        "type": "Point",
        "coordinates": [
          -123.0868,
          44.0521
        ]
      }
    },
    {
      "type": "Feature",
      "id": "OR_3",
      "properties": {
        "st": "OR",
        "state": "Oregon",
        "city": "Medford"
      },
      "geometry": {
        "type": "Point",
        "coordinates": [
          -122.8756,
          42.3265
        ]
      }
    },
    {
      "type": "Feature",
      "id": "PA_1",
      "properties": {
        "st": "PA",
        "state": "Pennsylvania",
        "city": "Philadelphia"
      },
      "geometry": {
        "type": "Point",
        "coordinates": [
          -75.1652,
          39.9526
        ]
      }
    },
    {
      "type": "Feature",
      "id": "PA_2",
      "properties": {
        "st": "PA",
        "state": "Pennsylvania",
        "city": "Pittsburgh"
      },
      "geometry": {
        "type": "Point",
        "coordinates": [
          -79.9959,
          40.4406
        ]
      }
    },
    {
      "type": "Feature",
      "id": "PA_3",
      "properties": {
        "st": "PA",
        "state": "Pennsylvania",
        "city": "Harrisburg"
      },
      "geometry": {
        "type": "Point",
        "coordinates": [
          -76.8867,
          40.2732
        ]
      }
    },
    {
      "type": "Feature",
      "id": "RI_1",
      "properties": {
        "st": "RI",
        "state": "Rhode Island",
        "city": "Providence"
      },
      "geometry": {
        "type": "Point",
        "coordinates": [
          -71.4128,
          41.824
        ]
      }
    },
    {
      "type": "Feature",
      "id": "SC_1",
      "properties": {
        "st": "SC",
        "state": "South Carolina",
        "city": "Charleston"
      },
      "geometry": {
        "type": "Point",
        "coordinates": [
          -79.9311,
          32.7765
        ]
      }
    },
    {
      "type": "Feature",
      "id": "SC_2",
      "properties": {
        "st": "SC",
        "state": "South Carolina",
        "city": "Greenville"
      },
      "geometry": {
        "type": "Point",
        "coordinates": [
          -82.394,
          34.8526
        ]
      }
    },
    {
      "type": "Feature",
      "id": "SC_3",
      "properties": {
        "st": "SC",
        "state": "South Carolina",
        "city": "Columbia"
      },
      "geometry": {
        "type": "Point",
        "coordinates": [
          -81.0348,
          34.0007
        ]
      }
    },
    {
      "type": "Feature",
      "id": "SD_1",
      "properties": {
        "st": "SD",
        "state": "South Dakota",
        "city": "Sioux Falls"
      },
      "geometry": {
        "type": "Point",
        "coordinates": [
          -96.7311,
          43.5446
        ]
      }
    },
    {
      "type": "Feature",
      "id": "SD_2",
      "properties": {
        "st": "SD",
        "state": "South Dakota",
        "city": "Rapid City"
      },
      "geometry": {
        "type": "Point",
        "coordinates": [
          -103.231,
          44.0805
        ]
      }
    },
    {
      "type": "Feature",
      "id": "SD_3",
      "properties": {
        "st": "SD",
        "state": "South Dakota",
        "city": "Aberdeen"
      },
      "geometry": {
        "type": "Point",
        "coordinates": [
          -98.4865,
          45.4647
        ]
      }
    },
    {
      "type": "Feature",
      "id": "TN_1",
      "properties": {
        "st": "TN",
        "state": "Tennessee",
        "city": "Nashville"
      },
      "geometry": {
        "type": "Point",
        "coordinates": [
          -86.7816,
          36.1627
        ]
      }
    },
    {
      "type": "Feature",
      "id": "TN_2",
      "properties": {
        "st": "TN",
        "state": "Tennessee",
        "city": "Memphis"
      },
      "geometry": {
        "type": "Point",
        "coordinates": [
          -90.049,
          35.1495
        ]
      }
    },
    {
      "type": "Feature",
      "id": "TN_3",
      "properties": {
        "st": "TN",
        "state": "Tennessee",
        "city": "Knoxville"
      },
      "geometry": {
        "type": "Point",
        "coordinates": [
          -83.9207,
          35.9606
        ]
      }
    },
    {
      "type": "Feature",
      "id": "TX_1",
      "properties": {
        "st": "TX",
        "state": "Texas",
        "city": "Dallas"
      },
      "geometry": {
        "type": "Point",
        "coordinates": [
          -96.797,
          32.7767
        ]
      }
    },
    {
      "type": "Feature",
      "id": "TX_2",
      "properties": {
        "st": "TX",
        "state": "Texas",
        "city": "Houston"
      },
      "geometry": {
        "type": "Point",
        "coordinates": [
          -95.3698,
          29.7604
        ]
      }
    },
    {
      "type": "Feature",
      "id": "TX_3",
      "properties": {
        "st": "TX",
        "state": "Texas",
        "city": "San Antonio"
      },
      "geometry": {
        "type": "Point",
        "coordinates": [
          -98.4936,
          29.4241
        ]
      }
    },
    {
      "type": "Feature",
      "id": "UT_1",
      "properties": {
        "st": "UT",
        "state": "Utah",
        "city": "Salt Lake City"
      },
      "geometry": {
        "type": "Point",
        "coordinates": [
          -111.891,
          40.7608
        ]
      }
    },
    {
      "type": "Feature",
      "id": "UT_2",
      "properties": {
        "st": "UT",
        "state": "Utah",
        "city": "Provo"
      },
      "geometry": {
        "type": "Point",
        "coordinates": [
          -111.6585,
          40.2338
        ]
      }
    },
    {
      "type": "Feature",
      "id": "UT_3",
      "properties": {
        "st": "UT",
        "state": "Utah",
        "city": "St. George"
      },
      "geometry": {
        "type": "Point",
        "coordinates": [
          -113.5684,
          37.0965
        ]
      }
    },
    {
      "type": "Feature",
      "id": "VA_1",
      "properties": {
        "st": "VA",
        "state": "Virginia",
        "city": "Richmond"
      },
      "geometry": {
        "type": "Point",
        "coordinates": [
          -77.436,
          37.5407
        ]
      }
    },
    {
      "type": "Feature",
      "id": "VA_2",
      "properties": {
        "st": "VA",
        "state": "Virginia",
        "city": "Virginia Beach"
      },
      "geometry": {
        "type": "Point",
        "coordinates": [
          -75.978,
          36.8529
        ]
      }
    },
    {
      "type": "Feature",
      "id": "VA_3",
      "properties": {
        "st": "VA",
        "state": "Virginia",
        "city": "Roanoke"
      },
      "geometry": {
        "type": "Point",
        "coordinates": [
          -79.9414,
          37.2709
        ]
      }
    },
    {
      "type": "Feature",
      "id": "VT_1",
      "properties": {
        "st": "VT",
        "state": "Vermont",
        "city": "Burlington"
      },
      "geometry": {
        "type": "Point",
        "coordinates": [
          -73.2121,
          44.4759
        ]
      }
    },
    {
      "type": "Feature",
      "id": "VT_2",
      "properties": {
        "st": "VT",
        "state": "Vermont",
        "city": "Rutland"
      },
      "geometry": {
        "type": "Point",
        "coordinates": [
          -72.9726,
          43.6106
        ]
      }
    },
    {
      "type": "Feature",
      "id": "WA_1",
      "properties": {
        "st": "WA",
        "state": "Washington",
        "city": "Seattle"
      },
      "geometry": {
        "type": "Point",
        "coordinates": [
          -122.3321,
          47.6062
        ]
      }
    },
    {
      "type": "Feature",
      "id": "WA_2",
      "properties": {
        "st": "WA",
        "state": "Washington",
        "city": "Spokane"
      },
      "geometry": {
        "type": "Point",
        "coordinates": [
          -117.426,
          47.6588
        ]
      }
    },
    {
      "type": "Feature",
      "id": "WA_3",
      "properties": {
        "st": "WA",
        "state": "Washington",
        "city": "Tri-Cities"
      },
      "geometry": {
        "type": "Point",
        "coordinates": [
          -119.09,
          46.23
        ]
      }
    },
    {
      "type": "Feature",
      "id": "WI_1",
      "properties": {
        "st": "WI",
        "state": "Wisconsin",
        "city": "Milwaukee"
      },
      "geometry": {
        "type": "Point",
        "coordinates": [
          -87.9065,
          43.0389
        ]
      }
    },
    {
      "type": "Feature",
      "id": "WI_2",
      "properties": {
        "st": "WI",
        "state": "Wisconsin",
        "city": "Madison"
      },
      "geometry": {
        "type": "Point",
        "coordinates": [
          -89.4012,
          43.0731
        ]
      }
    },
    {
      "type": "Feature",
      "id": "WI_3",
      "properties": {
        "st": "WI",
        "state": "Wisconsin",
        "city": "Green Bay"
      },
      "geometry": {
        "type": "Point",
        "coordinates": [
          -88.0133,
          44.5133
        ]
      }
    },
    {
      "type": "Feature",
      "id": "WV_1",
      "properties": {
        "st": "WV",
        "state": "West Virginia",
        "city": "Charleston"
      },
      "geometry": {
        "type": "Point",
        "coordinates": [
          -81.6326,
          38.3498
        ]
      }
    },
    {
      "type": "Feature",
      "id": "WV_2",
      "properties": {
        "st": "WV",
        "state": "West Virginia",
        "city": "Huntington"
      },
      "geometry": {
        "type": "Point",
        "coordinates": [
          -82.4452,
          38.4192
        ]
      }
    },
    {
      "type": "Feature",
      "id": "WV_3",
      "properties": {
        "st": "WV",
        "state": "West Virginia",
        "city": "Morgantown"
      },
      "geometry": {
        "type": "Point",
        "coordinates": [
          -79.9559,
          39.6295
        ]
      }
    },
    {
      "type": "Feature",
      "id": "WY_1",
      "properties": {
        "st": "WY",
        "state": "Wyoming",
        "city": "Cheyenne"
      },
      "geometry": {
        "type": "Point",
        "coordinates": [
          -104.8202,
          41.14
        ]
      }
    },
    {
      "type": "Feature",
      "id": "WY_2",
      "properties": {
        "st": "WY",
        "state": "Wyoming",
        "city": "Jackson"
      },
      "geometry": {
        "type": "Point",
        "coordinates": [
          -110.7624,
          43.4799
        ]
      }
    },
    {
      "type": "Feature",
      "id": "WY_3",
      "properties": {
        "st": "WY",
        "state": "Wyoming",
        "city": "Casper"
      },
      "geometry": {
        "type": "Point",
        "coordinates": [
          -106.3252,
          42.8501
        ]
      }
    }
  ]
}
